City_ID,City,Lat,Lng,Max Temp,Humidity,Cloudiness,Wind Speed,Country,Date
0,sao tome,0.3365,6.7273,26.45,81,95,2.1,ST,1698523623
1,mount pearl,47.5166,-52.7813,13.41,95,99,1.34,CA,1698523900
2,pacific grove,36.6177,-121.9166,21.42,62,0,5.81,US,1698523901
3,bernardo de irigoyen,-26.2552,-53.6458,19.06,98,99,2.48,AR,1698523901
4,grytviken,-54.2811,-36.5092,-0.43,97,100,1.11,GS,1698523625
5,fort st. john,56.2499,-120.8529,-0.2,52,96,1.28,CA,1698523625
6,blackmans bay,-43.0167,147.3167,8.18,80,99,0.45,AU,1698523902
7,waitangi,-43.9535,-176.5597,11.57,81,42,3.13,NZ,1698523626
8,nar'yan-mar,67.6713,53.087,-12.16,90,100,3.58,RU,1698523450
9,tura,25.5198,90.2201,19.21,84,0,1.79,IN,1698523859
10,udachny,66.4167,112.4,-19.33,98,47,3.61,RU,1698523903
11,darwin,-12.4611,130.8418,25.99,86,8,1.54,AU,1698523653
12,verkhniye sergi,56.6469,59.5556,-3.69,92,98,4.93,RU,1698523904
13,bilibino,68.0546,166.4372,-22.03,97,42,1.21,RU,1698523905
14,colonia,50.9333,6.95,13.01,88,20,6.17,DE,1698523373
15,ventspils,57.3894,21.5606,2.96,93,75,2.06,LV,1698523905
16,port-aux-francais,-49.35,70.2167,5.0,98,99,8.85,TF,1698523631
17,jamestown,42.097,-79.2353,14.18,78,100,3.6,US,1698523380
18,port moresby,-9.4431,147.1797,23.68,100,75,2.57,PG,1698523906
19,adamstown,-25.066,-130.1015,22.81,81,99,6.66,PN,1698523907
20,edinburgh of the seven seas,-37.0676,-12.3116,14.0,88,100,9.11,SH,1698523907
21,port lincoln,-34.7333,135.8667,9.29,80,2,2.13,AU,1698523496
22,keflavik,64.0049,-22.5624,4.24,75,0,1.54,IS,1698523418
23,namibe,-15.1961,12.1522,20.93,82,61,2.91,AO,1698523908
24,xiazhen,34.8022,117.1117,16.02,53,0,3.03,CN,1698523909
25,sao joao da barra,-21.6403,-41.0511,27.05,89,99,8.34,BR,1698523414
26,fisterra,42.9049,-9.2629,15.97,76,100,10.2,ES,1698523909
27,bikenibeu village,1.3673,173.1241,29.98,74,20,2.06,KI,1698523910
28,minas de marcona,-15.2119,-75.1103,17.73,72,76,6.28,PE,1698523473
29,ushuaia,-54.8,-68.3,6.81,42,0,3.6,AR,1698523182
30,thompson,55.7435,-97.8558,-3.91,93,75,3.09,CA,1698523490
31,bethel,41.3712,-73.414,26.61,62,75,4.12,US,1698523829
32,zinjibar,13.1287,45.3807,28.09,73,44,6.87,YE,1698523911
33,tiksi,71.6872,128.8694,-11.85,94,100,3.3,RU,1698523839
34,invercargill,-46.4,168.35,9.45,89,61,1.79,NZ,1698523912
35,avarua,-21.2078,-159.775,24.03,64,75,4.63,CK,1698523407
36,vilyuchinsk,52.9306,158.4028,3.85,75,100,1.77,RU,1698523913
37,fortuna,40.5982,-124.1573,14.96,72,0,1.34,US,1698523618
38,ataq,14.5377,46.8319,22.96,65,47,2.66,YE,1698523913
39,yola,9.2,12.4833,29.56,34,16,1.61,NG,1698523914
40,buenavista del norte,28.3746,-16.861,25.53,78,69,2.54,ES,1698523914
41,bellevue,47.6104,-122.2007,10.79,58,0,3.09,US,1698523291
42,ta`u,-14.2336,-169.5144,26.54,83,43,7.53,AS,1698523254
43,puerto natales,-51.7236,-72.4875,3.25,87,75,6.69,CL,1698523915
44,fort bragg,35.139,-79.006,30.36,49,0,0.89,US,1698523442
45,papatowai,-46.5619,169.4708,9.29,67,39,1.89,NZ,1698523916
46,undurkhaan,47.3194,110.6556,2.56,66,10,4.88,MN,1698523916
47,alofi,-19.0595,-169.9187,25.94,61,75,6.69,NU,1698523916
48,guerrero negro,27.9769,-114.0611,21.88,60,0,8.15,MX,1698523313
49,lihue,21.9789,-159.3672,27.58,66,0,2.57,US,1698523917
50,punta arenas,-53.15,-70.9167,5.62,52,98,0.56,CL,1698523917
51,yantzaza,-3.8278,-78.7594,29.97,47,100,1.02,EC,1698523918
52,vredendal,-31.6683,18.5012,17.85,34,0,9.04,ZA,1698523918
53,igurubi,-4.0,33.7,27.82,39,100,5.33,TZ,1698523918
54,selfoss,63.9331,-20.9971,2.8,70,100,2.7,IS,1698523387
55,margaret river,-33.95,115.0667,14.65,82,100,4.99,AU,1698523919
56,whitehorse,60.7161,-135.0538,-5.57,93,100,4.12,CA,1698523919
57,saipan,15.1355,145.701,27.39,94,40,2.57,MP,1698523920
58,quchan,37.106,58.5095,15.59,42,55,0.48,IR,1698523920
59,tolanaro,-25.0319,46.9987,24.04,94,40,9.77,MG,1698523483
60,sur,22.5667,59.5289,27.95,63,98,3.75,OM,1698523602
61,hamilton,39.1834,-84.5333,14.94,90,100,4.63,US,1698523427
62,puerto ayora,-0.7393,-90.3518,29.98,83,70,4.02,EC,1698523922
63,longyearbyen,78.2186,15.6401,-3.09,86,75,3.09,SJ,1698523923
64,sitka,57.0531,-135.33,7.3,73,98,0.96,US,1698523423
65,acapulco de juarez,16.8634,-99.8901,29.37,73,99,3.58,MX,1698523578
66,vorgashor,67.5833,63.95,-16.24,100,95,0.6,RU,1698523924
67,arvayheer,46.2639,102.775,-0.45,65,100,1.3,MN,1698523925
68,fukuecho,32.6881,128.8419,18.57,61,12,5.3,JP,1698523925
69,nikolayevsk-on-amure,53.1406,140.73,-2.22,84,55,2.1,RU,1698523926
70,gori,41.9842,44.1158,17.46,48,100,1.85,GE,1698523926
71,martapura,-3.4167,114.85,24.05,100,98,0.0,ID,1698523927
72,hermanus,-34.4187,19.2345,13.33,63,7,7.89,ZA,1698523410
73,constantia,44.1833,28.65,18.17,47,100,2.59,RO,1698523928
74,letlhakeng,-24.0944,25.0298,22.03,41,28,2.36,BW,1698523928
75,aasiaat,68.7098,-52.8699,-9.53,93,83,4.1,GL,1698523310
76,tual,-5.6667,132.75,27.18,80,100,2.06,ID,1698523646
77,teknaf,20.8624,92.3058,23.07,84,20,2.88,BD,1698523930
78,mazyr,52.0495,29.2456,6.37,88,100,4.92,BY,1698523931
79,kapuskasing,49.4169,-82.4331,0.32,64,100,4.07,CA,1698523720
80,isafjordur,66.0755,-23.124,2.34,87,100,2.4,IS,1698523932
81,dudinka,69.4058,86.1778,-15.74,92,62,5.81,RU,1698523678
82,tazovsky,67.4667,78.7,-14.16,91,56,4.39,RU,1698523932
83,conceicao do araguaia,-8.2578,-49.2647,36.79,29,8,2.59,BR,1698523627
84,agua branca,-5.8922,-42.6361,39.67,13,20,3.82,BR,1698523223
85,lagunas,-5.2269,-75.6753,32.87,51,100,1.42,PE,1698523934
86,aykhal,66.0,111.5,-18.76,100,85,4.5,RU,1698523934
87,san luis de la loma,17.2706,-100.8939,29.23,74,100,3.01,MX,1698523577
88,port mathurin,-19.6833,63.4167,24.41,80,14,3.97,MU,1698523935
89,luderitz,-26.6481,15.1594,17.33,57,0,11.47,NA,1698523936
90,oodweyne,9.4092,45.064,23.2,69,59,4.58,SO,1698523936
91,hasaki,35.7333,140.8333,12.38,65,25,7.88,JP,1698523502
92,anadyr,64.75,177.4833,1.28,100,100,6.0,RU,1698523298
93,island harbour,50.724,-1.2758,13.88,88,100,1.34,GB,1698523398
94,yellowknife,62.456,-114.3525,1.34,85,40,8.75,CA,1698523938
95,dosso,13.049,3.1937,30.11,23,7,1.89,NE,1698523938
96,olonkinbyen,70.9221,-8.7187,-0.78,74,99,2.95,SJ,1698523939
97,dubbo,-32.25,148.6167,9.07,81,0,4.12,AU,1698523939
98,santa ana,33.7456,-117.8678,24.69,63,40,3.6,US,1698523679
99,talnakh,69.4865,88.3972,-14.33,93,43,0.93,RU,1698523940
100,albany,42.6001,-73.9662,19.7,66,75,4.74,US,1698523691
101,minokamo,35.482,137.0217,13.51,78,0,2.15,JP,1698523941
102,ust-nera,64.5667,143.2,-17.66,99,100,1.39,RU,1698523562
103,kasongo-lunda,-6.4667,16.8167,22.57,93,100,0.55,CD,1698523942
104,new norfolk,-42.7826,147.0587,8.84,83,100,1.39,AU,1698523942
105,olyokminsk,60.3736,120.4264,-2.84,82,100,1.96,RU,1698523943
106,taksimo,56.3444,114.8794,-5.48,58,100,2.89,RU,1698523943
107,stanley,54.868,-1.6985,9.04,96,75,2.06,GB,1698523765
108,nova sintra,14.8667,-24.7167,23.74,77,34,7.9,CV,1698523945
109,estrela,-28.0611,-50.9383,16.28,98,100,1.4,BR,1698523795
110,opuwo,-18.0607,13.84,25.64,24,85,3.9,NA,1698523947
111,mil'kovo,55.6078,37.7956,0.75,97,100,5.12,RU,1698523948
112,monrovia,6.3005,-10.7969,25.87,84,98,2.94,LR,1698523697
113,ribeira grande,38.5167,-28.7,18.22,63,40,4.63,PT,1698523949
114,winnipeg,49.8844,-97.147,-1.61,78,32,5.81,CA,1698523834
115,petropavlovsk-kamchatsky,53.0452,158.6483,3.03,59,0,3.0,RU,1698523406
116,ketchikan,55.3422,-131.6461,7.26,70,0,4.12,US,1698523560
117,qusmuryn,52.4503,64.6311,1.2,98,100,3.95,KZ,1698523950
118,ierapetra,35.01,25.7353,22.86,76,0,1.34,GR,1698523951
119,uturoa,-16.7333,-151.4333,26.31,77,95,5.97,PF,1698523298
120,salatiga,-7.3319,110.4928,22.33,83,14,1.39,ID,1698523952
121,atarrabia,42.8323,-1.6074,17.08,55,0,9.26,ES,1698523952
122,cabo san lucas,22.8909,-109.9124,28.61,57,0,5.66,MX,1698523953
123,porcuna,37.871,-4.185,16.2,65,50,2.75,ES,1698523953
124,ilulissat,69.2167,-51.1,-3.99,74,20,6.69,GL,1698523954
125,badger,64.8,-147.5333,-3.44,85,0,0.0,US,1698523236
126,chui,-33.6971,-53.4616,21.94,75,26,2.71,UY,1698523687
127,kodiak,57.79,-152.4072,7.73,93,100,6.69,US,1698523955
128,taoudenni,22.6783,-3.9836,34.04,10,0,3.39,ML,1698523956
129,porto novo,6.4965,2.6036,27.9,81,0,2.41,BJ,1698523956
130,mwinilunga,-11.7358,24.4293,17.8,82,99,1.13,ZM,1698523957
131,norilsk,69.3535,88.2027,-18.01,97,68,0.23,RU,1698523684
132,pisco,-13.7,-76.2167,23.03,68,20,4.63,PE,1698523882
133,otofuke,42.9917,143.2003,9.25,92,100,1.24,JP,1698523958
134,suntar,62.1444,117.6319,-7.29,90,96,2.25,RU,1698523940
135,east london,-33.0153,27.9116,13.68,82,100,9.07,ZA,1698523434
136,enewetak,11.3474,162.3373,28.25,74,91,4.38,MH,1698523445
137,mirny,62.5353,113.9611,-8.2,85,50,4.96,RU,1698523960
138,walvis bay,-22.9575,14.5053,13.86,86,6,5.41,NA,1698523960
139,iqaluit,63.7506,-68.5145,-12.15,78,20,4.12,CA,1698523960
140,alice springs,-23.7,133.8833,10.75,16,97,2.57,AU,1698523961
141,lhokseumawe,5.1801,97.1507,25.13,88,18,1.21,ID,1698523961
142,hithadhoo,-0.6,73.0833,27.18,82,52,8.02,MV,1698523430
143,talakan,50.3167,130.3667,-0.56,64,1,1.7,RU,1698523962
144,hawaiian paradise park,19.5933,-154.9731,28.28,75,40,3.09,US,1698523962
145,katsuura,35.1333,140.3,16.07,70,36,5.68,JP,1698523963
146,bejaia,36.7559,5.0843,18.59,84,69,0.81,DZ,1698523761
147,georgetown,5.4112,100.3354,25.96,89,20,0.0,MY,1698523855
148,susuman,62.7833,148.1667,-17.23,99,92,0.45,RU,1698523427
149,anjozorobe,-18.4,47.8667,17.94,93,98,1.65,MG,1698523964
150,san julian,21.0167,-102.1667,25.04,35,71,2.92,MX,1698523964
151,san patricio,28.017,-97.5169,33.42,54,42,7.02,US,1698523965
152,ebon,4.582,168.6964,28.36,75,47,4.55,MH,1698523965
153,naas,53.2158,-6.6669,11.69,91,100,5.5,IE,1698523966
154,fatehabad,29.5167,75.45,23.1,28,65,2.76,IN,1698523966
155,labuan bajo,-8.4964,119.8877,24.56,80,58,1.64,ID,1698523966
156,afaahiti,-17.75,-149.2833,26.93,75,95,2.55,PF,1698523619
157,qaqortoq,60.7167,-46.0333,0.31,81,20,1.55,GL,1698523579
158,saudarkrokur,65.7461,-19.6394,-0.07,82,93,2.93,IS,1698523967
159,fria,10.4167,-13.5833,25.12,95,33,1.47,GN,1698523967
160,rongelap,11.1635,166.8941,28.29,78,16,6.48,MH,1698523968
161,haiku-pauwela,20.9219,-156.3051,28.98,62,40,8.23,US,1698523509
162,wailua homesteads,22.0669,-159.378,27.24,70,13,1.79,US,1698523425
163,hoemul-li,41.4339,129.67,7.39,50,4,1.74,KP,1698523969
164,westport,41.1415,-73.3579,28.3,62,6,1.34,US,1698523783
165,ghat,24.9647,10.1728,28.36,18,35,1.47,LY,1698523548
166,ambalangoda,6.2355,80.0538,24.84,91,100,2.08,LK,1698523970
167,lebu,-37.6167,-73.65,11.2,83,87,8.57,CL,1698523834
168,tindouf,27.6711,-8.1474,25.25,36,0,5.14,DZ,1698523971
169,naze,28.3667,129.4833,19.19,63,0,4.77,JP,1698523971
170,popondetta,-8.7537,148.2534,22.88,96,100,1.44,PG,1698523971
171,phimai,15.2232,102.4947,28.95,84,100,0.6,TH,1698523972
172,touros,-5.1989,-35.4608,26.48,69,16,7.01,BR,1698523266
173,pierre,44.3683,-100.351,-1.75,71,100,4.12,US,1698523517
174,usogorsk,63.4106,48.6872,-3.52,83,100,4.1,RU,1698523461
175,odda,60.0691,6.5457,5.98,85,9,3.24,NO,1698523973
176,arraial do cabo,-22.9661,-42.0278,25.98,88,75,8.75,BR,1698523319
177,ola,59.5833,151.2833,-1.98,70,89,3.09,RU,1698523974
178,chernyshevskiy,63.0128,112.4714,-8.85,82,98,3.66,RU,1698523943
179,porto murtinho,-21.6989,-57.8825,31.37,52,93,6.31,BR,1698523975
180,la ronge,55.1001,-105.2842,-2.88,63,75,4.63,CA,1698523408
181,palompon,11.0508,124.3843,26.31,84,46,2.42,PH,1698523975
182,port elizabeth,-33.918,25.5701,12.95,68,92,3.13,ZA,1698523976
183,palikir - national government center,6.9248,158.1611,23.41,94,100,2.06,FM,1698523860
184,howrah,22.5892,88.3103,24.0,83,20,0.0,IN,1698523364
185,saldanha,-33.0117,17.9442,15.03,64,0,10.39,ZA,1698523977
186,la passe,45.5549,-0.8967,18.34,85,100,10.17,FR,1698523641
187,paita,-5.0892,-81.1144,23.02,75,61,6.85,PE,1698523978
188,nadi,-17.8,177.4167,27.0,69,20,1.03,FJ,1698523978
189,sergach,55.5308,45.4661,0.51,99,100,6.48,RU,1698523979
190,lerwick,60.1545,-1.1494,8.0,65,30,10.16,GB,1698523979
191,st. john's,47.5649,-52.7093,13.87,95,98,2.24,CA,1698523298
192,auki,-8.7676,160.7034,25.68,88,71,1.57,SB,1698523604
193,puerto deseado,-47.7503,-65.8938,16.16,25,75,11.76,AR,1698523654
194,obo,5.3998,26.4869,20.63,92,100,1.48,CF,1698523980
195,bredasdorp,-34.5322,20.0403,14.05,46,100,6.81,ZA,1698523880
196,port alfred,-33.5906,26.891,14.17,67,100,10.38,ZA,1698523981
197,iquique,-20.2208,-70.1431,20.02,71,80,3.24,CL,1698523226
198,saynshand,44.8824,110.1163,6.55,38,27,4.94,MN,1698523982
199,umluj,25.0213,37.2685,28.77,52,82,9.96,SA,1698523982
200,cerro largo,-28.1486,-54.7381,19.17,98,100,4.07,BR,1698523983
201,west island,-12.1568,96.8225,25.99,73,100,8.75,CC,1698523196
202,labytnangi,66.6572,66.4183,-11.7,89,89,1.82,RU,1698523639
203,kailua-kona,19.6406,-155.9956,30.89,65,20,5.14,US,1698523984
204,santa maria da vitoria,-13.3947,-44.1886,38.16,18,63,2.88,BR,1698523984
205,jeddah,21.5169,39.2192,25.92,69,20,0.0,SA,1698523985
206,kievka,50.2619,71.5514,1.41,97,100,5.46,KZ,1698523985
207,lorengau,-2.0226,147.2712,27.1,84,94,3.97,PG,1698523255
208,medina,24.4686,39.6142,24.24,60,40,5.66,SA,1698523986
209,canto do buriti,-8.11,-42.9444,38.78,16,33,5.22,BR,1698523725
210,mufulira,-12.5498,28.2407,22.57,53,72,1.97,ZM,1698523987
211,praia da vitoria,38.7333,-27.0667,18.14,63,40,9.84,PT,1698523436
212,fuerte olimpo,-21.0415,-57.8738,37.97,30,89,5.59,PY,1698523988
213,mazabuka,-15.856,27.748,26.77,32,5,2.52,ZM,1698523989
214,oasis,33.4659,-116.0989,31.02,29,0,2.57,US,1698523989
215,atafu village,-8.5421,-172.5159,28.38,74,39,4.21,TK,1698523990
216,minab,27.1467,57.0801,28.12,62,0,1.18,IR,1698523990
217,tirana,41.3275,19.8189,16.49,88,40,1.54,AL,1698523991
218,klyuchi,52.2667,79.1667,-1.75,54,100,3.96,RU,1698523991
219,kasane,-17.8167,25.15,28.95,17,48,3.6,BW,1698523671
220,kalmunai,7.4167,81.8167,25.98,82,81,0.83,LK,1698523668
221,fale old settlement,-9.3852,-171.2468,28.3,75,45,4.68,TK,1698523412
222,dakhla,23.6848,-15.958,21.02,88,3,7.87,EH,1698523672
223,nova vicosa,-17.8919,-39.3719,26.39,78,99,6.43,BR,1698523994
224,ulladulla,-35.35,150.4667,12.22,62,0,2.47,AU,1698523994
225,ad dabbah,18.05,30.95,30.58,17,49,4.0,SD,1698523995
226,mutuali,-14.8706,37.0044,26.24,38,42,1.73,MZ,1698523995
227,cill airne,52.05,-9.5167,9.28,92,100,1.37,IE,1698523996
228,wynyard,-41.0,145.7167,9.01,78,99,1.35,AU,1698523456
229,geneina,13.45,22.45,30.48,24,90,1.81,SD,1698523997
230,xunchang,28.4543,104.715,16.39,86,100,0.83,CN,1698523997
231,portland,45.5234,-122.6762,12.54,45,0,6.69,US,1698523533
232,kidal,18.4411,1.4078,30.23,10,54,3.65,ML,1698523993
233,alaghsas,17.0187,8.0168,28.47,11,33,3.03,NE,1698523630
234,playa del ingles,27.7567,-15.5787,23.86,82,64,0.89,ES,1698523999
235,faya-largeau,17.9257,19.1043,29.15,14,32,5.42,TD,1698523999
236,cangzhou,38.3167,116.8667,15.44,67,10,2.69,CN,1698524000
237,ruteng,-8.6136,120.4721,15.89,85,34,0.89,ID,1698524001
238,carutapera,-1.195,-46.02,29.08,69,13,5.93,BR,1698523508
239,jinchang,38.4953,102.1739,8.65,35,7,0.36,CN,1698524002
240,zelenoborskiy,66.845,32.3622,-2.71,91,95,3.56,RU,1698524002
241,smithville,39.3869,-94.5811,6.08,87,100,3.09,US,1698523972
242,al bawiti,28.3492,28.8659,23.86,32,98,3.32,EG,1698523569
243,college,64.8569,-147.8028,-3.39,84,75,1.34,US,1698524004
244,bandarbeyla,9.4942,50.8122,26.36,79,100,4.89,SO,1698524004
245,nuku'alofa,-21.1333,-175.2,24.19,78,20,6.17,TO,1698523634
246,santiago de cao,-7.9589,-79.2392,21.07,78,0,5.14,PE,1698524005
247,sidi bennour,32.6524,-8.4277,18.72,65,89,4.63,MA,1698524006
248,zapala,-38.8992,-70.0544,8.49,64,63,14.58,AR,1698524006
249,mansa,29.9833,75.3833,22.18,31,68,2.48,IN,1698524007
250,kamien pomorski,53.9685,14.7726,8.2,81,100,4.49,PL,1698524007
251,khovd,48.0056,91.6419,-2.55,53,25,0.73,MN,1698524008
252,portel,-1.9356,-50.8211,35.69,35,6,2.9,BR,1698523846
253,utrik,11.2278,169.8474,28.25,78,100,8.51,MH,1698523844
254,klotze,52.6167,11.1667,11.68,93,49,3.15,DE,1698524009
255,anloga,5.7947,0.8973,27.48,79,2,3.66,GH,1698524009
256,al ghayzah,16.2079,52.176,25.82,72,14,2.92,YE,1698524010
257,zemio,5.0314,25.1361,20.26,97,74,0.81,CF,1698524010
258,tadine,-21.55,167.8833,22.37,78,2,7.77,NC,1698524011
259,haradok,55.4624,29.9816,-0.1,96,100,3.36,BY,1698524011
260,ciudad acuna,29.3232,-100.9522,28.16,61,75,4.12,MX,1698524011
261,ust'-kut,56.7938,105.7672,-7.53,52,69,4.02,RU,1698524012
262,shalazhi,43.0978,45.3608,16.64,49,46,2.74,RU,1698524012
263,newman,37.3138,-121.0208,19.02,25,0,5.36,US,1698524013
264,cruz del eje,-30.7264,-64.8039,31.72,26,0,8.22,AR,1698524013
265,igarka,67.4667,86.5833,-14.97,94,75,2.03,RU,1698523494
266,pingliang,35.5392,106.6861,11.02,65,0,1.16,CN,1698524014
267,gadzhiyevo,69.2551,33.3362,-5.7,92,94,1.99,RU,1698523596
268,broken hill,-31.95,141.4333,18.36,20,57,4.69,AU,1698523870
269,richards bay,-28.783,32.0377,18.21,90,100,8.91,ZA,1698523563
270,filadelfia,39.9523,-75.1638,28.48,56,75,5.14,US,1698523839
271,coquimbo,-29.9533,-71.3436,16.23,67,65,3.95,CL,1698524017
272,tangalle,6.024,80.7911,24.96,88,100,1.52,LK,1698523625
273,port blair,11.6667,92.75,27.03,80,53,1.19,IN,1698524018
274,staryy krym,45.0333,35.1,14.39,52,74,2.7,UA,1698524018
275,kerikeri,-35.2268,173.9474,12.73,92,100,2.24,NZ,1698523512
276,tyukhtet,56.5389,89.3011,-5.39,87,97,2.9,RU,1698524019
277,huarmey,-10.0681,-78.1522,22.41,75,94,5.92,PE,1698524019
278,la ligua,-32.4524,-71.2311,17.42,51,100,3.99,CL,1698524020
279,qui nhon,13.7667,109.2333,24.91,91,96,2.33,VN,1698524020
280,la tuque,47.4334,-72.7824,7.14,61,100,4.63,CA,1698524021
281,mangai,-4.05,19.5333,25.06,75,100,0.63,CD,1698524021
282,kupang,-10.1667,123.5833,24.32,94,37,0.0,ID,1698524021
283,ust'-ilimsk,58.0006,102.6619,-3.64,56,100,5.36,RU,1698524022
284,kill devil hills,36.0307,-75.676,26.01,57,0,2.06,US,1698524022
285,holualoa,19.6228,-155.9522,28.82,66,20,5.14,US,1698523844
286,saint-philippe,-21.3585,55.7679,22.77,84,40,3.19,RE,1698524023
287,kuchaiburi,22.2667,86.1667,18.55,66,0,1.03,IN,1698524023
288,port-gentil,-0.7193,8.7815,26.47,84,6,4.18,GA,1698523804
289,lewistown,40.5992,-77.5714,23.53,91,75,0.0,US,1698524024
290,tongouson,5.0214,120.1328,27.25,76,78,1.34,PH,1698524024
291,kikwit,-5.041,18.8162,22.66,92,33,0.61,CD,1698524024
292,kapa'a,22.0752,-159.319,27.99,66,0,2.57,US,1698524025
293,ancud,-41.8697,-73.8203,8.59,73,97,12.27,CL,1698523576
294,taos,36.4072,-105.5731,17.22,35,0,5.66,US,1698524025
295,codrington,-38.2667,141.9667,4.33,94,38,3.42,AU,1698523450
296,kone,-21.0595,164.8658,21.39,78,87,3.16,NC,1698523439
297,vadso,70.0744,29.7487,-1.91,80,75,2.57,NO,1698523999
298,orbetello,42.4408,11.2196,14.01,73,0,1.64,IT,1698524027
299,lice,38.4592,40.6475,16.93,55,6,0.92,TR,1698524028
300,patacamaya,-17.2333,-67.9167,19.84,15,72,5.84,BO,1698524028
301,palmer,42.1584,-72.3287,26.01,51,75,5.14,US,1698523373
302,shitanjing,39.2342,106.3439,9.69,34,0,3.11,CN,1698523993
303,vilhena,-12.7406,-60.1458,29.52,51,81,0.79,BR,1698524029
304,shingu,33.7333,135.9833,11.28,78,0,3.47,JP,1698523674
305,sylacauga,33.1732,-86.2516,28.44,50,100,2.57,US,1698524030
306,ciudad madero,22.2667,-97.8333,29.11,74,75,4.11,MX,1698523820
307,manacapuru,-3.2997,-60.6206,37.62,28,50,1.47,BR,1698524030
308,taulaga,-11.0553,-171.0883,28.28,75,81,4.51,AS,1698524031
309,sinabang,2.4803,96.3801,25.64,87,66,0.89,ID,1698524031
310,buta,2.7858,24.73,21.55,88,79,0.94,CD,1698524031
311,cowra,-33.8333,148.6833,9.23,52,0,1.44,AU,1698524032
312,chita,52.0333,113.55,-3.04,46,40,10.0,RU,1698524032
313,cruz alta,-28.6386,-53.6064,18.35,96,100,5.87,BR,1698524032
314,surkhpur,32.7161,74.4461,19.82,88,4,1.77,PK,1698524033
315,hami,42.8,93.45,9.35,50,1,2.9,CN,1698523553
316,nogliki,51.8333,143.1667,-0.92,79,15,3.13,RU,1698523712
317,tamarin,-20.3256,57.3706,24.18,80,0,1.86,MU,1698524034
318,atherton,53.5237,-2.4935,11.83,94,100,0.89,GB,1698524034
319,sosnogorsk,63.6023,53.8817,-5.81,89,80,2.24,RU,1698524034
320,san pablo villa de mitla,16.9167,-96.4,23.13,45,33,3.02,MX,1698524035
321,mahanje,-9.9333,35.3333,21.13,55,93,1.61,TZ,1698523493
322,general jose de san martin,-26.5374,-59.3416,25.94,83,75,2.71,AR,1698524035
323,luanda,-8.8368,13.2343,27.0,78,100,4.63,AO,1698524036
324,chibougamau,49.9168,-74.3659,-0.21,74,75,6.69,CA,1698524034
325,flying fish cove,-10.4217,105.6791,25.82,83,100,5.14,CX,1698523386
326,veraval,20.9,70.3667,26.96,62,100,1.46,IN,1698524037
327,yurimaguas,-5.9,-76.0833,30.09,66,40,1.54,PE,1698524037
328,lhasa,29.65,91.1,2.16,45,22,1.93,CN,1698524037
329,fomboni,-12.28,43.7425,26.72,80,5,6.61,KM,1698524038
330,mailsi,29.8003,72.1758,25.02,28,61,2.19,PK,1698524038
331,rikaze,29.25,88.8833,3.56,24,6,1.38,CN,1698524038
332,moanda,-1.5575,13.2178,24.61,74,100,0.75,GA,1698524039
333,weno,7.4515,151.8468,26.97,94,100,2.57,FM,1698523571
334,vetapalem,15.7833,80.3167,25.95,83,42,3.54,IN,1698524039
335,mahibadhoo,3.7833,72.9667,27.51,79,66,4.03,MV,1698524040
336,champerico,14.3,-91.9167,32.3,74,78,4.73,GT,1698523715
337,barclayville,4.6797,-8.2339,25.43,88,54,2.71,LR,1698524040
338,yakeshi,49.2833,120.7333,2.6,54,100,1.18,CN,1698524041
339,dompu,-8.5356,118.4622,24.06,93,18,0.39,ID,1698524041
340,qamdo,31.1667,97.2333,-5.38,52,0,0.55,CN,1698523468
341,leer,53.2316,7.461,11.08,95,55,5.38,DE,1698524042
342,san juan de miraflores,-12.1629,-76.9635,22.29,79,100,4.74,PE,1698524042
343,gillette,44.2911,-105.5022,-3.83,67,20,1.54,US,1698523612
344,port augusta,-32.5,137.7667,13.7,82,100,2.93,AU,1698524044
345,sao jose da coroa grande,-8.8978,-35.1478,26.19,68,96,4.52,BR,1698523623
346,adam,22.3756,57.5233,27.21,46,82,2.91,OM,1698524045
347,ormara,25.2088,64.6357,27.01,73,0,4.46,PK,1698524046
348,carnarvon,-24.8667,113.6333,19.38,67,2,10.95,AU,1698524009
349,sao jose de ribamar,-2.5619,-44.0542,30.21,80,8,7.59,BR,1698524046
350,cidreira,-30.1811,-50.2056,21.73,83,100,5.71,BR,1698524014
351,balykshi,47.0667,51.8667,12.0,100,100,4.0,KZ,1698524047
352,tucuma,-0.1833,-50.05,31.07,56,34,5.87,BR,1698523866
353,aras-asan,8.8908,126.3033,25.8,85,89,1.65,PH,1698524048
354,sarupathar,26.1984,93.8094,19.32,94,0,0.48,IN,1698524048
355,jilin,43.0,126.0,2.67,51,12,1.87,CN,1698524049
356,zanjan,36.6736,48.4787,14.16,33,11,1.11,IR,1698524049
357,bozdar wada,27.1828,68.636,28.36,28,11,2.69,PK,1698524049
358,dieppe,49.75,1.1667,14.1,93,100,2.24,FR,1698524050
359,luau,-10.7073,22.2247,19.99,75,15,0.99,AO,1698524050
360,klaksvik,62.2266,-6.589,7.51,79,100,11.13,FO,1698524051
361,tara,56.8944,74.371,-9.05,97,60,1.54,RU,1698524051
362,urengoy,65.9667,78.3667,-11.94,90,91,4.34,RU,1698524051
363,trenggalek,-8.05,111.7167,22.66,93,85,0.45,ID,1698524048
364,torbat-e heydariyeh,35.274,59.2195,17.41,35,100,1.43,IR,1698524052
365,alatyr',54.8421,46.5813,1.37,98,100,6.03,RU,1698524052
366,chipiona,36.7366,-6.437,19.06,75,0,4.99,ES,1698524053
367,sioux falls,43.55,-96.7003,-2.08,82,100,3.6,US,1698523762
368,goniri,11.4833,12.3144,26.74,21,6,4.03,NG,1698524053
369,butembo,0.15,29.2833,14.71,97,100,0.86,CD,1698524054
370,prince rupert,54.3161,-130.3201,7.42,46,13,0.82,CA,1698523820
371,smithers,54.7804,-127.1743,0.18,55,0,1.03,CA,1698524054
372,morehead city,34.7229,-76.726,28.01,76,0,5.14,US,1698524055
373,daru,-9.0763,143.2092,24.87,93,100,6.9,PG,1698523818
374,nchelenge,-9.3451,28.734,24.39,71,20,2.66,ZM,1698524055
375,corinto,37.9407,22.9573,20.5,76,64,1.46,GR,1698524056
376,tanhacu,-14.0214,-41.2481,34.59,28,70,5.51,BR,1698524056
377,ambanja,-13.6833,48.45,24.78,88,66,0.84,MG,1698524057
378,talara,-4.5772,-81.2719,26.42,65,40,4.12,PE,1698524057
379,isangel,-19.55,169.2667,24.06,83,10,3.09,VU,1698524057
380,salinopolis,-0.6136,-47.3561,28.51,79,6,7.48,BR,1698524058
381,dunedin,-45.8742,170.5036,10.45,71,87,0.89,NZ,1698523975
382,hammerfest,70.6634,23.6821,-0.75,80,40,1.54,NO,1698524030
383,cochrane,51.1834,-114.4687,0.5,65,100,3.6,CA,1698523370
384,margate,51.3813,1.3862,14.06,92,100,3.58,GB,1698524026
385,howard springs,-12.497,131.047,25.95,90,8,1.62,AU,1698524059
386,hilo,19.7297,-155.09,28.4,71,40,3.09,US,1698523994
387,kirensk,57.7853,108.1119,-3.91,51,85,3.58,RU,1698524060
388,babayurt,43.6002,46.7789,18.52,51,64,2.88,RU,1698524060
389,kolonia town,6.964,158.206,24.0,94,100,2.06,FM,1698524061
390,beyneu,45.3167,55.2,18.64,53,100,2.39,KZ,1698524061
391,armacao de buzios,-22.7469,-41.8817,25.03,88,100,10.31,BR,1698524028
392,xiaoshi,41.2971,124.1209,7.6,58,8,2.07,CN,1698524062
393,'ain el melh,34.8415,4.1638,19.44,41,100,4.73,DZ,1698524062
394,charters towers,-20.1,146.2667,17.6,82,51,2.98,AU,1698524062
395,belyy yar,53.6039,91.3903,-8.06,79,0,3.0,RU,1698524063
396,celestun,20.8667,-90.4,30.3,59,17,7.75,MX,1698524063
397,labuan,5.2767,115.2417,26.9,83,56,2.9,MY,1698524063
398,san antonio de pale,-1.4014,5.6325,26.24,79,5,3.47,GQ,1698523993
399,quellon,-43.1167,-73.6167,8.07,76,48,10.24,CL,1698524005
400,huittinen,61.1833,22.7,-3.9,83,9,1.31,FI,1698524064
401,trouville-sur-mer,49.3657,0.0804,14.89,88,75,7.72,FR,1698524065
402,kununurra,-15.7667,128.7333,16.99,67,95,0.0,AU,1698524038
403,altus,34.6381,-99.334,10.73,87,100,5.14,US,1698524066
404,mezhdurechensk,53.6942,88.0603,-7.13,94,38,1.03,RU,1698524066
405,vanimo,-2.6741,141.3028,24.67,89,91,1.42,PG,1698524066
406,okha,53.5739,142.9478,0.45,95,100,4.89,RU,1698523964
407,shelbyville,35.4834,-86.4603,29.14,49,20,1.54,US,1698524067
408,glace bay,46.1969,-59.957,20.5,72,98,5.51,CA,1698523830
409,collie,-33.3667,116.15,8.54,96,61,0.96,AU,1698524068
410,mombetsu,44.3525,143.3525,7.87,86,100,2.08,JP,1698524069
411,tenno,39.9,139.9667,13.55,82,100,5.81,JP,1698524069
412,dumai,1.6833,101.45,23.17,96,99,0.1,ID,1698524069
413,joshimath,30.5667,79.5667,13.05,49,93,2.29,IN,1698524070
414,turkan,40.3639,50.215,17.1,94,20,2.06,AZ,1698524071
415,salalah,17.0151,54.0924,26.05,83,0,2.06,OM,1698524069
416,broome,42.2506,-75.833,15.65,79,75,5.66,US,1698524072
417,boali,4.8005,18.1275,23.01,89,17,0.45,CF,1698524072
418,south boston,42.3334,-71.0495,27.63,54,40,6.69,US,1698524073
419,bowling green,36.9903,-86.4436,28.41,64,20,2.06,US,1698524074
420,cururupu,-1.8283,-44.8683,29.12,64,24,3.0,BR,1698524074
421,korbach,51.2756,8.873,9.98,93,100,4.4,DE,1698524075
422,nikel,69.4128,30.222,-4.9,96,84,1.57,RU,1698524075
423,kendari,-3.945,122.4989,22.41,91,8,0.84,ID,1698524076
424,kenai,60.5544,-151.2583,2.3,87,40,4.63,US,1698524002
425,inarajan village,13.2736,144.7484,28.08,95,81,5.78,GU,1698524030
426,dublin,37.7021,-121.9358,19.67,40,0,4.12,US,1698523985
427,at taj,24.2049,23.2857,23.18,27,7,3.82,LY,1698524077
428,raduzhnyy,62.0961,77.475,-11.26,92,30,3.07,RU,1698524077
429,nuuk,64.1835,-51.7216,-3.66,80,40,6.71,GL,1698523976
430,vernon,50.2581,-119.2691,6.53,48,0,1.54,CA,1698524008
431,nyurba,63.2842,118.3319,-11.21,94,100,2.36,RU,1698524064
432,kelowna,49.8831,-119.4857,6.47,44,0,0.45,CA,1698523807
433,juan griego,11.0817,-63.9655,30.66,65,100,2.99,VE,1698524079
434,keilor,-37.7167,144.8333,10.33,90,20,3.6,AU,1698524079
435,sorong,-0.8833,131.25,25.26,88,100,3.48,ID,1698524053
436,rodos,36.4408,28.2225,22.66,88,20,1.03,GR,1698524080
437,benghazi,32.1167,20.0667,24.03,70,51,2.03,LY,1698523934
438,demyansk,57.643,32.466,-0.26,98,100,2.06,RU,1698524081
439,camana,-16.6228,-72.7111,19.71,83,73,3.5,PE,1698524081
440,mount isa,-20.7333,139.5,16.87,22,35,2.06,AU,1698524081
441,huntsville,34.7304,-86.5861,29.14,50,40,5.14,US,1698523902
442,zhenlai,45.8495,123.2973,4.9,39,14,4.47,CN,1698524082
443,nemuro,43.3236,145.575,12.11,75,92,2.58,JP,1698524071
444,kingston,17.997,-76.7936,31.53,67,20,3.09,JM,1698524000
445,souran,35.2916,36.7488,24.72,34,0,0.66,SY,1698524083
446,nizhniy lomov,53.5304,43.6766,6.51,99,100,4.13,RU,1698524083
447,nikolayevsk,50.0282,45.4595,13.4,63,0,9.84,RU,1698524083
448,port saint john's,-31.6229,29.5448,15.2,88,100,6.7,ZA,1698524084
449,maumere,-8.6199,122.2111,25.91,78,16,2.42,ID,1698524084
450,lichtenburg,-26.152,26.1597,18.94,52,71,4.1,ZA,1698524084
451,san-pedro,4.7485,-6.6363,25.73,89,3,3.02,CI,1698524085
452,jijel,36.8205,5.7667,20.97,73,40,1.54,DZ,1698524086
453,harstad,68.799,16.5293,0.64,94,100,2.24,NO,1698524080
454,kamyzyak,46.11,48.0736,14.99,100,100,6.0,RU,1698524086
455,mount gambier,-37.8333,140.7667,3.87,97,42,2.21,AU,1698524087
456,nagqu,31.5,92.0,-5.54,58,100,1.05,CN,1698523878
457,homer,59.6425,-151.5483,6.69,82,100,3.09,US,1698524087
458,douglas,41.3,-96.167,2.55,72,100,6.17,US,1698524003
459,west valley,46.5921,-120.6051,6.75,38,0,0.45,US,1698524088
460,cobija,-11.0267,-68.7692,24.1,100,100,5.14,BO,1698524088
461,camalu,30.85,-116.0667,21.6,53,0,6.26,MX,1698524089
462,kashgar,39.4547,75.9797,14.56,28,0,4.0,CN,1698524089
463,moroni,-11.7022,43.2551,25.5,76,6,1.64,KM,1698524089
464,salekhard,66.53,66.6019,-11.71,91,95,1.13,RU,1698524090
465,rumonge,-3.9736,29.4386,24.08,70,55,1.4,BI,1698524090
466,missoula,47.0166,-113.8009,-5.2,68,13,1.49,US,1698524090
467,orizona,-17.0314,-48.2958,27.86,54,97,3.34,BR,1698524091
468,manokwari,-0.8667,134.0833,25.85,79,100,1.36,ID,1698524091
469,yuzhno-kurilsk,44.0306,145.8556,11.32,87,96,3.51,RU,1698524048
470,piti village,13.4626,144.6933,28.03,93,100,2.57,GU,1698524092
471,mulanje,-16.0316,35.5,26.65,45,79,2.78,MW,1698523823
472,crane,31.3974,-102.3501,26.72,53,44,9.33,US,1698524081
473,conde,-7.2597,-34.9075,26.7,69,20,6.17,BR,1698524093
474,yishui,35.7847,118.6281,13.37,52,60,1.93,CN,1698524093
475,paradip garh,20.3167,86.6167,23.63,67,5,2.54,IN,1698524093
476,suzun,53.7841,82.3116,-5.59,81,7,1.32,RU,1698524094
477,shiguai,40.7058,110.2856,8.06,37,12,0.95,CN,1698524094
478,odoyev,53.9393,36.6864,0.65,98,100,6.66,RU,1698524094
479,deqen,29.9618,90.7188,0.87,34,14,1.32,CN,1698524095
480,maceio,-9.6658,-35.7353,27.69,69,40,5.66,BR,1698523890
481,fuyang,32.9,115.8167,17.37,73,40,2.6,CN,1698524014
482,kittila,67.6647,24.8936,-4.92,93,100,0.51,FI,1698524096
483,patnanungan,14.7833,122.1833,27.08,80,23,7.02,PH,1698524096
484,akureyri,65.6835,-18.0878,-0.04,74,0,0.0,IS,1698524096
485,bangkalan,-7.0455,112.7351,24.97,76,71,1.02,ID,1698524097
486,geraldton,-28.7667,114.6,14.23,77,0,5.66,AU,1698524097
487,lensk,60.7253,114.9278,-3.83,60,39,4.6,RU,1698524097
488,santarem,-2.4431,-54.7083,35.07,52,27,5.14,BR,1698524098
489,talavera,15.6167,120.9333,23.07,90,8,1.77,PH,1698524098
490,remire-montjoly,4.9167,-52.2667,32.02,62,0,6.69,GF,1698524017
491,urangan,-25.3,152.9,20.14,58,41,6.13,AU,1698524044
492,twon-brass,4.3151,6.2418,27.56,79,34,2.92,NG,1698524013
493,okhotsk,59.3833,143.3,-4.37,83,99,5.73,RU,1698524018
494,iskateley,67.6803,53.1512,-12.21,90,100,3.58,RU,1698524028
495,gufeng,26.9083,118.9819,13.49,94,100,0.91,CN,1698524100
496,kristiansund,63.1115,7.732,-0.64,69,7,1.54,NO,1698524100
497,peace river,56.2501,-117.286,2.03,61,8,4.0,CA,1698523810
498,antalaha,-14.9003,50.2788,22.41,91,30,1.82,MG,1698524101
499,ocosingo,17.0667,-92.25,26.36,46,24,2.55,MX,1698524101
500,laojunmiao,39.8333,97.7333,5.93,36,85,0.08,CN,1698524029
501,middle island,40.8843,-72.9373,28.34,63,0,5.66,US,1698524102
502,la palma,33.8464,-118.0467,25.43,68,20,4.63,US,1698524103
503,borzya,50.3833,116.5167,0.28,54,82,7.45,RU,1698524104
504,serhiyivka,46.0272,30.3768,16.28,53,67,2.5,UA,1698524104
505,northam,51.0333,-4.2167,12.03,91,100,5.63,GB,1698524105
506,barcelos,41.5388,-8.6151,18.08,92,100,9.34,PT,1698523841
507,crotone,39.0851,17.1178,20.11,67,4,1.91,IT,1698524106
508,kruisfontein,-34.0033,24.7314,11.65,56,99,4.8,ZA,1698524106
509,bengkulu,-3.8004,102.2655,23.83,92,53,2.66,ID,1698524107
510,lata,40.1629,-8.3327,17.73,91,99,5.14,PT,1698524107
511,neiafu,-18.65,-173.9833,26.38,78,40,5.66,TO,1698524107
512,north bend,43.4065,-124.2243,12.95,44,0,5.14,US,1698524108
513,novosergiyevka,52.0934,53.6528,5.28,98,100,6.43,RU,1698524108
514,kodinsk,58.6881,99.1844,-3.09,65,100,4.57,RU,1698524109
515,grand falls-windsor,48.9332,-55.6649,13.06,94,100,5.01,CA,1698524110
516,tsiombe,-25.3,45.4833,23.06,86,0,1.33,MG,1698524024
517,karaton,-6.3424,106.1045,23.69,81,9,0.45,ID,1698524110
518,kaduy,59.2,37.15,-1.93,96,100,1.69,RU,1698524111
519,magadan,59.5667,150.8,-3.02,76,95,3.08,RU,1698523994
520,sunnyside,46.3237,-120.0087,7.6,43,0,0.0,US,1698524111
521,yarrawonga,-36.0167,146.0,11.39,53,76,3.88,AU,1698524114
522,pandan,14.0453,124.1694,26.71,83,31,4.55,PH,1698524116
523,san andres,12.5847,-81.7006,30.01,74,20,2.57,CO,1698524118
524,idri,27.5,13.2667,25.86,18,0,3.02,LY,1698524119
525,mejit,10.2753,170.8646,28.47,75,55,8.47,MH,1698524077
526,balqash,46.8481,74.995,5.86,82,100,4.62,KZ,1698524121
527,urzhar,47.093,81.6294,6.94,83,100,2.04,KZ,1698523997
528,lashio,22.9333,97.75,16.72,99,87,0.62,MM,1698524122
529,ljusdal,61.8288,16.0913,-2.03,81,21,1.0,SE,1698524122
530,cabedelo,-6.9811,-34.8339,27.37,68,55,6.35,BR,1698524038
531,bambamarca,-6.6833,-78.5333,14.01,91,100,1.84,PE,1698524123
532,alenquer,-1.9417,-54.7383,36.83,29,81,2.93,BR,1698524125
533,novyy urengoy,66.0833,76.6333,-10.82,86,52,4.3,RU,1698524126
534,loango,-4.6719,11.8312,26.3,84,19,2.54,CG,1698524127
535,berezovo,63.9381,65.0419,-11.47,94,9,0.87,RU,1698523876
536,burao,9.5221,45.5336,22.23,75,100,5.05,SO,1698524127
537,nambour,-26.6333,152.95,17.14,89,59,1.34,AU,1698524130
538,tafuna,-14.3358,-170.72,27.97,89,100,6.17,AS,1698524132
539,yangambi,0.8102,24.4336,21.71,82,76,0.54,CD,1698524056
540,candido mendes,-1.4467,-45.7167,29.38,65,15,4.23,BR,1698524132
541,chengde,40.9725,117.9361,9.42,75,4,0.43,CN,1698524133
542,wangqing,43.3218,129.7634,0.76,57,5,0.52,CN,1698524133
543,delson,45.3668,-73.5492,14.23,51,20,7.72,CA,1698524133
544,zouerate,22.7187,-12.4521,29.3,23,52,3.92,MR,1698524134
545,mangrol,21.1167,70.1167,27.29,62,100,2.3,IN,1698524134
546,waiuku,-37.25,174.75,15.7,71,100,4.57,NZ,1698524135
547,imbituba,-28.24,-48.6703,22.7,98,100,1.82,BR,1698524135
548,sainyabuli,19.25,101.75,20.39,99,76,0.5,LA,1698524136
549,suva,-18.1416,178.4415,23.71,100,75,2.57,FJ,1698523714
550,tabas,33.5959,56.9244,23.38,30,65,2.45,IR,1698524004
551,antsohihy,-14.8796,47.9875,26.13,80,16,0.79,MG,1698524137
552,acajutla,13.5928,-89.8275,28.24,80,88,6.47,SV,1698524137
553,al kharijah,25.4514,30.5464,26.53,33,2,4.08,EG,1698524137
554,puerto aysen,-45.4,-72.7,5.09,99,100,4.45,CL,1698524138
555,elko,41.0002,-115.5012,3.42,37,98,4.02,US,1698524138
556,christchurch,-43.5333,172.6333,12.96,72,2,2.57,NZ,1698523942
557,yokadouma,3.5167,15.05,23.47,81,95,1.16,CM,1698524139
558,vila franca do campo,37.7167,-25.4333,18.27,99,100,5.97,PT,1698524006
559,cognin,45.5638,5.8944,14.0,81,0,5.66,FR,1698524140
